#################################################################
## Zones
#################################################################
  - name: Home
    latitude: 51.647693
    longitude: 4.5972584
    radius: 250
    icon: mdi:account-multiple
    
  - name: School
    latitude: 51.6365337
    longitude: 4.599435599999999
    radius: 150
    icon: mdi:school

  - name: Werk Martijn
    latitude: 51.56559249999997
    longitude: 4.613113281249967
    radius: 250
    icon: mdi:work

  - name: Werk Suzanne ETL
    latitude: 51.585742
    longitude: 4.644310000000001
    radius: 250
    icon: mdi:work

  - name: Werk Suzanne ZVB
    latitude: 51.641659
    longitude: 4.595139
    radius: 150
    icon: mdi:work

  - name: Martijn en Marjon
    latitude: 51.466862
    longitude: 5.483291
    radius: 500
    icon: mdi:human-male-female

  - name: Eric en Bregtje
    latitude: 51.725166
    longitude: 5.370844
    radius: 500
    icon: mdi:human-male-female

  - name: Gellius en Evelien
    latitude: 52.986615
    longitude: 6.973190
    radius: 500
    icon: mdi:human-male-female

  - name: Sander en Martje
    latitude: 52.141138
    longitude: 5.241615
    radius: 500
    icon: mdi:human-male-female

  - name: Jeroen
    latitude: 53.192273
    longitude: 6.556440
    radius: 500
    icon: mdi:human-male

  - name: Tettje
    latitude: 53.254569
    longitude: 6.141320
    radius: 500
    icon: mdi:human-female

  - name: Jan en Ingrid
    latitude: 59.985647
    longitude: 13.499334
    radius: 500
    icon: mdi:human-male-female

  - name: AH Zevenbergen
    latitude: 51.643938
    longitude: 4.604883
    radius: 75
    icon: mdi:cart

  - name: Action Zevenbergen
    latitude: 51.645765
    longitude: 4.607218
    radius: 75
    icon: mdi:cart

  - name: HC Zevenbergen
    latitude: 51.646646
    longitude: 4.584979
    radius: 200
    icon: mdi:hockey-sticks

  - name: Praxis Zevenbergen
    latitude: 51.645952
    longitude: 4.619600
    radius: 60
    icon: mdi:cart

  - name: Total Zevenbergen
    latitude: 51.646738
    longitude: 4.618173
    radius: 60
    icon: mdi:cart

  - name: Hornbach Breda
    latitude: 51.603183
    longitude: 4.767537
    radius: 250
    icon: mdi:cart

  - name: IKEA Breda
    latitude: 51.580129
    longitude: 4.728648
    radius: 250
    icon: mdi:cart

  - name: Aldi Zevenbergen
    latitude: 51.649332
    longitude: 4.601897
    radius: 75
    icon: mdi:cart

  - name: Suzanne Etten-Leur Fiets Meetpunt
    latitude: 51.590266
    longitude: 4.658489
    radius: 600
    icon: mdi:bicycle

  - name: Martijn Hoeven Fiets Meetpunt
    latitude: 51.607375
    longitude: 4.586347
    radius: 600
    icon: mdi:bicycle

  - name: Suzanne Etten-Leur Auto Meetpunt
    latitude: 51.594128
    longitude: 4.642958
    radius: 600
    icon: mdi:car

  - name: Martijn Etten-Leur Auto Meetpunt
    latitude: 51.575962
    longitude: 4.627388
    radius: 800
    icon: mdi:car

